"nid","parent_nid","name","serial","type","latitude","longitude","status"
"1","0","Provinsi Aceh","11","1","4.695135","96.7493993","1"
"2","0","Provinsi Sumatera Utara","12","1","2.1153547","99.5450974","1"
"3","0","Provinsi Sumatera Barat","13","1","-0.7399397","100.8000051","1"
"4","0","Provinsi Riau","14","1","0.2933469","101.7068294","1"
"5","0","Provinsi Jambi","15","1","-1.4851831","102.4380581","1"
"6","0","Provinsi Sumatera Selatan","16","1","-3.3194374","103.914399","1"
"7","0","Provinsi Bengkulu","17","1","-3.5778471","102.3463875","1"
"8","0","Provinsi Lampung","18","1","-4.5585849","105.4068079","1"
"9","0","Provinsi Kepulauan Bangka Belitung","19","1","-2.7410513","106.4405872","1"
"10","0","Provinsi Kepulauan Riau","21","1","3.9456514","108.1428669","1"
"925","5","Kabupaten Batanghari","501","2","-1.7083922","103.0817903","1"
"926","5","Kabupaten Bungo","502","2","-1.6401338","101.8891721","1"
"927","5","Kabupaten Kerinci","503","2","-1.8720467","101.4339148","1"
"928","5","Kabupaten Merangin","504","2","-2.1752789","101.9804613","1"
"929","5","Kabupaten Muaro Jambi","505","2","-1.596672","103.615799","1"
"930","5","Kabupaten Sarolangun","506","2","-2.2654937","102.6905326","1"
"931","5","Kabupaten Tanjung Jabung Barat","507","2","-1.2332122","103.7984428","1"
"932","5","Kabupaten Tanjung Jabung Timur","508","2","-1.3291599","103.89973","1"
"933","5","Kabupaten Tebo","509","2","-1.2592999","102.3463875","1"
"934","5","Kota Jambi","510","2","-1.596672","103.615799","1"
"935","5","Kota Sungai Penuh","511","2","-2.06314","101.387199","1"
"1326","1","Kabupaten Simeulue","1109","2","2.583333","96.083333","1"
"1327","1","Kabupaten Aceh Singkil","1102","2","2.3589459","97.87216","1"
"1328","1","Kabupaten Aceh Selatan","1101","2","3.3115056","97.3516558","1"
"1329","1","Kabupaten Aceh Tenggara","1102","2","3.3088666","97.6982272","1"
"1330","1","Kabupaten Aceh Timur","1103","2","5.255443","95.9885456","1"
"1331","1","Kabupaten Aceh Tengah","1104","2","4.4482641","96.8350999","1"
"1332","1","Kabupaten Aceh Barat","1105","2","4.4542745","96.1526985","1"
"1333","1","Kabupaten Aceh Besar","1106","2","5.4529168","95.4777811","1"
"1334","1","Kabupaten Pidie","1107","2","5.0742659","95.940971","1"
"1335","1","Kabupaten Bireuen","1111","2","5.18254","96.89005","1"
"1336","1","Kabupaten Aceh Utara","1108","2","4.9786331","97.2221421","1"
"1337","1","Kabupaten Aceh Barat Daya","1112","2","3.0512643","97.3368031","1"
"1338","1","Kabupaten Gayo Lues","1113","2","3.955165","97.3516558","1"
"1339","1","Kabupaten Aceh Tamiang","1116","2","4.2328871","98.0028892","1"
"1340","1","Kabupaten Nagan Raya","1115","2","4.1248406","96.4929797","1"
"1341","1","Kabupaten Aceh Jaya","1114","2","4.7873684","95.6457951","1"
"1342","1","Kabupaten Bener Meriah","1117","2","4.7748348","97.0068393","1"
"1343","1","Kabupaten Pidie Jaya","1118","2","5.1548063","96.195132","1"
"1344","1","Kota Banda Aceh","1171","2","5.55","95.3166667","1"
"1345","1","Kota Sabang","1172","2","5.8946929","95.3192982","1"
"1346","1","Kota Langsa","1174","2","4.48","97.9633333","1"
"1347","1","Kota Lhokseumawe","1173","2","5.1880556","97.1402778","1"
"1348","1","Kota Subulussalam","1175","2","2.6449927","98.0165205","1"
"1349","2","Kabupaten Nias","1204","2","1.0317521865381514","97.76820760927562","1"
"1350","2","Kabupaten Mandailing Natal","1213","2","0.7432372","99.3673084","1"
"1351","2","Kabupaten Tapanuli Selatan","1203","2","1.5774933","99.2785583","1"
"1352","2","Kabupaten Tapanuli Tengah","1201","2","1.8493299","98.704075","1"
"1353","2","Kabupaten Tapanuli Utara","1202","2","2.0405246","99.1013498","1"
"1354","2","Kabupaten Toba Samosir","1212","2","2.3502398","99.2785583","1"
"1355","2","Kabupaten Labuhanbatu","1210","2","2.3439863","100.1703257","1"
"1356","2","Kabupaten Asahan","1209","2","2.8174722","99.634135","1"
"1357","2","Kabupaten Simalungun","1208","2","2.9781612","99.2785583","1"
"1358","2","Kabupaten Dairi","1211","2","2.8675801","98.265058","1"
"1359","2","Kabupaten Karo","1206","2","3.1052909","98.265058","1"
"1360","2","Kabupaten Deli Serdang","1207","2","3.4201802","98.704075","1"
"1361","2","Kabupaten Langkat","1205","2","3.8653916","98.3088441","1"
"1362","2","Kabupaten Nias Selatan","1214","2","0.7086091","97.8286368","1"
"1363","2","Kabupaten Humbang Hasundutan","1216","2","2.1988508","98.5721016","1"
"1364","2","Kabupaten Pakpak Bharat","1215","2","2.545786","98.299838","1"
"1365","2","Kabupaten Samosir","1217","2","2.5833333","98.8166667","1"
"1366","2","Kabupaten Serdang Bedagai","1218","2","3.3371694","99.0571089","1"
"1367","2","Kabupaten Batu Bara","1219","2","3.1740979","99.5006143","1"
"1368","2","Kabupaten Padang Lawas Utara","1220","2","1.5758644","99.634135","1"
"1369","2","Kabupaten Padang Lawas","1221","2","1.1186977","99.8124935","1"
"1370","2","Kota Sibolga","1273","2","1.7403745","98.7827988","1"
"1371","2","Kota Tanjung Balai","1274","2","2.965122","99.800331","1"
"1372","2","Kota Pematang Siantar","1272","2","2.96","99.06","1"
"1373","2","Kota Tebing Tinggi","1276","2","3.3856205","99.2009815","1"
"1374","2","Kota Medan","1271","2","3.585242","98.6755979","1"
"1375","2","Kota Binjai","1275","2","3.594462","98.482246","1"
"1376","2","Kota Padangsidimpuan","1277","2","1.380424","99.273972","1"
"1377","3","Kabupaten Kepulauan Mentawai","1309","2","-1.426001","98.9245343","1"
"1378","3","Kabupaten Pesisir Selatan","1301","2","-1.7223147","100.8903099","1"
"1379","3","Kabupaten Solok","1302","2","-0.803027","100.644402","1"
"1380","3","Kabupaten Sijunjung","1303","2","-0.6881586","100.997658","1"
"1381","3","Kabupaten Tanah Datar","1304","2","-0.4797043","100.5746224","1"
"1382","3","Kabupaten Padang Pariaman","1305","2","-0.5546757","100.2151578","1"
"1383","3","Kabupaten Agam","1306","2","-0.2209392","100.1703257","1"
"1384","3","Kabupaten Lima Puluh Kota","1307","2","3.168216","99.4187929","1"
"1385","3","Kabupaten Pasaman","1308","2","0.1288752","99.7901781","1"
"1386","3","Kabupaten Solok Selatan","1311","2","-1.4157329","101.2523792","1"
"1387","3","Kabupaten Dharmas Raya","1310","2","-1.1120568","101.6157773","1"
"1388","3","Kabupaten Pasaman Barat","1312","2","0.2213005","99.634135","1"
"1389","3","Kota Padang","1371","2","-0.95","100.3530556","1"
"1390","3","Kota Solok","1372","2","-0.803027","100.644402","1"
"1391","3","Kota Sawah Lunto","1373","2","-0.6810286","100.7763604","1"
"1392","3","Kota Padang Panjang","1374","2","-0.470679","100.4059456","1"
"1393","3","Kota Bukittinggi","1375","2","-0.3055556","100.3691667","1"
"1394","3","Kota Payakumbuh","1376","2","-0.22887","100.632301","1"
"1395","3","Kota Pariaman","1377","2","-0.6264389","100.1179574","1"
"1396","4","Kabupaten Kuantan Singingi","1409","2","-0.4411596","101.5248055","1"
"1397","4","Kabupaten Indragiri Hulu","1402","2","-0.7361181","102.2547919","1"
"1398","4","Kabupaten Indragiri Hilir","1404","2","-0.1456733","102.989615","1"
"1399","4","Kabupaten Pelalawan","1405","2","0.441415","102.088699","1"
"1400","4","Kabupaten S I A K","1408","2","0.8089087522468632","101.81046042639937","1"
"1401","4","Kabupaten Kampar","1401","2","0.146671","101.1617356","1"
"1402","4","Kabupaten Rokan Hulu","1406","2","1.0410934","100.439656","1"
"1403","4","Kabupaten Bengkalis","1403","2","1.4897222","102.0797222","1"
"1404","4","Kabupaten Rokan Hilir","1407","2","1.6463978","100.8000051","1"
"1405","4","Kota Pekanbaru","1471","2","0.5333333","101.45","1"
"1406","4","Kota Dumai","1472","2","1.665742","101.447601","1"
"1407","5","Kabupaten Kerinci","1501","2","-1.697","101.264","1"
"1408","5","Kabupaten Merangin","1502","2","-2.1752789","101.9804613","1"
"1409","5","Kabupaten Sarolangun","1503","2","-2.2654937","102.6905326","1"
"1410","5","Kabupaten Batang Hari","1504","2","-1.7083922","103.0817903","1"
"1411","5","Kabupaten Muaro Jambi","1505","2","-1.596672","103.615799","1"
"1412","5","Kabupaten Tanjung Jabung Timur","1507","2","-1.3291599","103.89973","1"
"1413","5","Kabupaten Tanjung Jabung Barat","1506","2","-1.2332122","103.7984428","1"
"1414","5","Kabupaten Tebo","1509","2","-1.2592999","102.3463875","1"
"1415","5","Kabupaten Bungo","1508","2","-1.6401338","101.8891721","1"
"1416","5","Kota Jambi","1571","2","-1.596672","103.615799","1"
"1417","6","Kabupaten Ogan Komering Ulu","1601","2","-4.0283486","104.0072348","1"
"1418","6","Kabupaten Ogan Komering Ilir","1602","2","-3.4559744","105.2194808","1"
"1419","6","Kabupaten Muara Enim","1603","2","-3.651581","103.770798","1"
"1420","6","Kabupaten Lahat","1604","2","-3.7863889","103.5427778","1"
"1421","6","Kabupaten Musi Rawas","1605","2","-2.8625305","102.989615","1"
"1422","6","Kabupaten Musi Banyuasin","1606","2","-2.5442029","103.7289167","1"
"1423","6","Kabupaten Banyu Asin","1607","2","-2.6095639","104.7520939","1"
"1424","6","Kabupaten Ogan Komering Ulu Selatan","1609","2","-4.6681951","104.0072348","1"
"1425","6","Kabupaten Ogan Komering Ulu Timur","1608","2","-3.8567934","104.7520939","1"
"1426","6","Kabupaten Ogan Ilir","1610","2","-3.426544","104.6121475","1"
"1427","6","Kabupaten Empat Lawang","1611","2","-3.7286029","102.8975098","1"
"1428","6","Kota Palembang","1671","2","-2.9911083","104.7567333","1"
"1429","6","Kota Prabumulih","1674","2","-3.440956","104.235397","1"
"1430","6","Kota Pagar Alam","1672","2","-4.03767","103.265297","1"
"1431","6","Kota Lubuklinggau","1673","2","-3.2966667","102.8616667","1"
"1432","7","Kabupaten Bengkulu Selatan","1701","2","-4.3248409","103.035694","1"
"1433","7","Kabupaten Rejang Lebong","1702","2","-3.4548154","102.6675575","1"
"1434","7","Kabupaten Bengkulu Utara","1703","2","-3.4219555","102.1632718","1"
"1435","7","Kabupaten Kaur","1704","2","-4.6792278","103.4511768","1"
"1436","7","Kabupaten Seluma","1705","2","-4.0622929","102.5642261","1"
"1437","7","Kabupaten Mukomuko","1706","2","-2.5760003","101.1169805","1"
"1438","7","Kabupaten Lebong","1707","2","-2.992617","104.382202","1"
"1439","7","Kabupaten Kepahiang","1708","2","-3.651431","102.578201","1"
"1440","7","Kota Bengkulu","1771","2","-3.7955556","102.2591667","1"
"1441","8","Kabupaten Lampung Barat","1804","2","-5.1490396","104.1930918","1"
"1442","8","Kabupaten Tanggamus","1802","2","-5.3027489","104.5655273","1"
"1443","8","Kabupaten Lampung Selatan","1801","2","-5.5622614","105.5474373","1"
"1444","8","Kabupaten Lampung Timur","1807","2","-5.1134995","105.6881788","1"
"1445","8","Kabupaten Lampung Tengah","1802","2","-4.8008086","105.3131185","1"
"1446","8","Kabupaten Lampung Utara","1803","2","-4.8133905","104.7520939","1"
"1447","8","Kabupaten Way Kanan","1808","2","-4.4963689","104.5655273","1"
"1448","8","Kabupaten Tulangbawang","1812","2","-4.3176576","105.5005483","1"
"1449","8","Kabupaten Pesawaran","1809","2","-5.493245","105.0791228","1"
"1450","8","Kota Bandar Lampung","1871","2","-5.3964454981015635","105.26300908245102","1"
"1451","8","Kota Metro","1872","2","-5.1166667","105.3","1"
"1452","9","Kabupaten Bangka","1901","2","-2.2884782","106.0640179","1"
"1453","9","Kabupaten Belitung","1902","2","-2.8708938","107.9531836","1"
"1454","9","Kabupaten Bangka Barat","1905","2","-2.2884782","106.0640179","1"
"1455","9","Kabupaten Bangka Tengah","1904","2","-2.2884782","106.0640179","1"
"1456","9","Kabupaten Bangka Selatan","1903","2","-2.2884782","106.0640179","1"
"1457","9","Kabupaten Belitung Timur","1906","2","-2.8708938","107.9531836","1"
"1458","9","Kota Pangkal Pinang","1971","2","-2.129323","106.109596","1"
"1459","10","Kabupaten Karimun","2102","2","1.05","103.3666667","1"
"1460","10","Kabupaten Bintan","2101","2","1.0619173","104.5189214","1"
"1461","10","Kabupaten Natuna","2103","2","3.9329945","108.1812242","1"
"1462","10","Kabupaten Lingga","2104","2","-0.1627686","104.6354631","1"
"1463","10","Kota Batam","2171","2","1.0456264","104.0304535","1"
"1464","10","Kota Tanjung Pinang","2172","2","0.9179205","104.446464","1"
"1766","10"," Kabupaten Anambas","2105","2","3.1055459","105.6537231","1"
"1753","2","Kabupaten Labuhanbatu Utara","1223","2","2.3465638","99.8124935","1"
"1754","2","Kabupaten Labuhanbatu Selatan","1222","2","1.8799353","100.1703257","1"
"1758","2","Kota Gunungsitoli","1278","2","1.281964","97.61594","1"
"1756","2","Kabupaten Nias Utara","1224","2","1.1255279","97.5247243","1"
"1757","2","Kabupaten Nias Barat","1225","2","1.1255279","97.5247243","1"
"1759","4","Kabupaten Kepulauan Meranti","1410","2","0.9208765","102.6675575","1"
"1765","10","Kabupaten Lingga","2104","2","-0.1627686","104.6354631","1"
"1760","5","Kota Sungai Penuh","1572","2","-2.06314","101.387199","1"
"1761","7","Kabupaten Bengkulu Tengah","1709","2","-3.7955556","102.2591667","1"
"1764","8","Kabupaten Mesuji","1811","2","-4.0044783","105.3131185","1"
"1762","8","Kabupaten Tulangbawang Barat","1806","2","-4.5256967","105.0791228","1"
"1763","8","Kabupaten Pringsewu","1810","2","-5.3539884","104.9622498","1"




